{"type":"FeatureCollection","features":[{"type":"Feature","properties":{"marker-color":"#7e7e7e","marker-size":"medium","marker-symbol":"","Name":"Patio Andaluz","Type":"Venue","Status":"Closed","Notes":"In the 1960's The Royal Jesters rented used the building as a venue, rehearsal hall, and office.","More_info":"https://vimeo.com/320530192"},"geometry":{"type":"Point","coordinates":[-98.51092949509619,29.426576609124567]}},{"type":"Feature","properties":{"marker-color":"#7e7e7e","marker-size":"medium","marker-symbol":"","Name":"La Música de la San Anto","Address":"1303 West Commerce Street, San Antonio, TX 78207, United States of America","Type":"Mural","Status":"In business","Notes":"A mural by David Blancas as tribute to the lives and music of San Antonio-based musicians.","More_info":"http://www.sananto.org/37---la-musica-de-san-anto.html"},"geometry":{"type":"Point","coordinates":[-98.50904524326324,29.426782191571448]}},{"type":"Feature","properties":{"marker-color":"#7e7e7e","marker-size":"medium","marker-symbol":"","Name":"GCP (Guerra Company Production)","Type":"Label","Status":"Closed"},"geometry":{"type":"Point","coordinates":[-98.50418508052826,29.39215671142327]}},{"type":"Feature","properties":{"marker-color":"#7e7e7e","marker-size":"medium","marker-symbol":"","Name":"Rio Records","Type":"Label","Status":"Closed","More_info":"http://frontera.library.ucla.edu/blog/2015/06/label-history-rio-records"},"geometry":{"type":"Point","coordinates":[-98.50162893533707,29.42563512964846]}},{"type":"Feature","properties":{"marker-color":"#7e7e7e","marker-size":"medium","marker-symbol":"","Name":"Janie’s Record Shop","Address":"1012 Bandera Road, San Antonio, TX 78228, United States of America","Type":"Record Shop","Status":"In business"},"geometry":{"type":"Point","coordinates":[-98.55723179876804,29.459356493904796]}},{"type":"Feature","properties":{"marker-color":"#7e7e7e","marker-size":"medium","marker-symbol":"","Name":"Del Bravo Record Shop","Address":"554 Enrique M. Barrera Pkwy, San Antonio, TX 78237","Type":"Record Shop","Status":"In business"},"geometry":{"type":"Point","coordinates":[-98.57152462005615,29.42694572276615]}},{"type":"Feature","properties":{"marker-color":"#7e7e7e","marker-size":"medium","marker-symbol":"","Name":"The Squeezebox","Address":"2806 North Saint Mary's Street, San Antonio, TX 78212, United States of America","Type":"Bar","Status":"In business","Notes":"The dive bar has been dubbed, “The Sounds & Soul of San Anto on the St. Mary’s Strip.”","More_info":"https://southsidesanantonio.com/aaron-pena-the-man-behind-the-squeezebox/"},"geometry":{"type":"Point","coordinates":[-98.48566442728043,29.451509789245396]}},{"type":"Feature","properties":{"marker-color":"#7e7e7e","marker-size":"medium","marker-symbol":"","Name":"The Lighthouse Lounge","Address":"1016 Cincinnati Avenue, San Antonio, TX 78201, United States of America","Type":"Bar","Status":"In business"},"geometry":{"type":"Point","coordinates":[-98.5274565964937,29.4496383782141]}},{"type":"Feature","properties":{"marker-color":"#7e7e7e","marker-size":"medium","marker-symbol":"","Name":"Tiffany Lounge","Type":"Nightclub","Status":"Closed","Notes":"Popular downtown nightclub which welcomed integrated audiences and bands.","More_info":"https://www.texasmonthly.com/articles/musical-marginalia/"},"geometry":{"type":"Point","coordinates":[-98.49361784756184,29.426334815600587]}},{"type":"Feature","properties":{"marker-color":"#7e7e7e","marker-size":"medium","marker-symbol":"","Name":"Keyhole Club","Type":"Nightclub","Status":"Closed","Notes":"Popular Eastside nightclub and venue. \"In 1946, a newspaper article touted Don’s Keyhole as the finest nightspot for entertainment featuring one of the best floor shows in San Antonio.\"","More_info":"https://sanantonioreport.org/eastside-story-don-albert-dominique-keyhole-club/"},"geometry":{"type":"Point","coordinates":[-98.47025647759438,29.412016575992254]}}]}